stop_id,stop_name,stop_lat,stop_lon,stop_desc
102593,E TREMONT AV/CROSS BRONX EXP,40.822380,-73.819283,E TREMONT AV & CROSS BRONX EXP
102621,HARDING AV/E TREMONT AV,40.816090,-73.815390,HARDING AV & E TREMONT AV
103161,EDGEWATER PK/EDGEWATER PK OVAL,40.822635,-73.811030,EDGEWATER PK & EDGEWATER PK OVAL
103228,E TREMONT AV/SAMPSON AV,40.820575,-73.818219,E TREMONT AV & SAMPSON AV
103229,E TREMONT AV/ MILES AV,40.818951,-73.817249,E TREMONT AV &  MILES AV
103561,LAYTON AV/VINCENT AV,40.834843,-73.820867,LAYTON AV & VINCENT AV
103690,THROGS NECK EXP/WISSMAN AV,40.819976,-73.810254,THROGS NECK EXP & WISSMAN AV
104062,THROGS NECK EXP/RANDALL AV,40.828255,-73.817154,THROGS NECK EXP & RANDALL AV
104106,E TREMONT AVE / ROOSEVELT AVE,40.825678,-73.821224,E TREMONT AVE  &  ROOSEVELT AVE
104229,HARDING AV/PENNYFIELD AV,40.816721,-73.809223,HARDING AV & PENNYFIELD AV
150041,RANDALL AV/CROSS BRONX EX,40.824992,-73.824066,RANDALL AV & CROSS BRONX EX
400742,6 AV/W 55 ST,40.762965,-73.978080,6 AV & W 55 ST
401165,PARK ROW/BEEKMAN ST,40.711588,-74.007089,PARK ROW & BEEKMAN ST
401797,PEARL ST/FRANKFORT ST,40.709439,-74.001844,PEARL ST & FRANKFORT ST
401800,WATER ST/MAIDEN LN,40.706103,-74.006269,WATER ST & MAIDEN LN
401840,E 34 ST /3 AV,40.745918,-73.978210,E 34 ST  & 3 AV
401842,E 34 ST /PARK AV,40.747338,-73.981559,E 34 ST  & PARK AV
401844,W 34 ST/5 AV,40.748603,-73.984667,W 34 ST & 5 AV
402085,FRANKFORT ST / PEARL ST,40.709500,-74.001853,FRANKFORT ST  &  PEARL ST
402214,E 57 ST/LEXINGTON AV,40.760714,-73.968776,E 57 ST & LEXINGTON AV
402678,3 AV/E 39 ST,40.749101,-73.975585,3 AV & E 39 ST
403640,3 AV/E 50 ST,40.756158,-73.970388,3 AV & E 50 ST
403831,WATER ST/JOHN ST,40.706941,-74.005198,WATER ST & JOHN ST
404169,3 AV/E 55 ST,40.759026,-73.968297,3 AV & E 55 ST
405060,CHURCH ST/VESEY ST,40.711917,-74.010139,CHURCH ST & VESEY ST
405256,TRINITY PL/MORRIS ST,40.706390,-74.013905,TRINITY PL & MORRIS ST
405337,WATER ST/GOUVERNEUR LN,40.704793,-74.008090,WATER ST & GOUVERNEUR LN
405399,WATER ST/BROAD ST,40.703104,-74.011308,WATER ST & BROAD ST
450001,3 AV/E 38 ST,40.748354,-73.976096,3 AV & E 38 ST
450002,3 AV/E 38 ST,40.748139,-73.976244,3 AV & E 38 ST
450004,3 AV/E 43 ST,40.751559,-73.973767,3 AV & E 43 ST
450005,3 AV/E 44 ST,40.751994,-73.973438,3 AV & E 44 ST
450006,3 AV/E 50 ST,40.755884,-73.970552,3 AV & E 50 ST
450009,3 AV/E 56 ST,40.759496,-73.967978,3 AV & E 56 ST
450011,6 AV/W 36 ST,40.751003,-73.986790,6 AV & W 36 ST
450012,6 AV/W 37 ST,40.751612,-73.986325,6 AV & W 37 ST
450013,6 AV/W 37 ST,40.751742,-73.986190,6 AV & W 37 ST
450014,6 AV/W 41 ST,40.754590,-73.984193,6 AV & W 41 ST
450015,6 AV/W 42 ST,40.754836,-73.984121,6 AV & W 42 ST
450016,6 AV/W 43 ST,40.755621,-73.983396,6 AV & W 43 ST
450018,6 AV/W 44 ST,40.756262,-73.982958,6 AV & W 44 ST
450019,6 AV/W 45 ST,40.756684,-73.982655,6 AV & W 45 ST
450020,6 AV/W 48 ST,40.758791,-73.981116,6 AV & W 48 ST
450021,6 AV/W 49 ST,40.759191,-73.980820,6 AV & W 49 ST
450022,6 AV/W 51 ST,40.760426,-73.979877,6 AV & W 51 ST
450024,6 AV/W 55 ST,40.763175,-73.977918,6 AV & W 55 ST
450030,E 57 ST/ 3 AV,40.760391,-73.968015,E 57 ST &  3 AV
450031,E 57 ST/5 AV,40.762636,-73.973311,E 57 ST & 5 AV
450033,E 57 ST/MADISON AV,40.762333,-73.972631,E 57 ST & MADISON AV
450066,6 AV/W 35 ST,40.750341,-73.987222,6 AV & W 35 ST
450082,MADISON AV/E 23 ST,40.741114,-73.987718,MADISON AV & E 23 ST
450091,MADISON AV/E 36 ST,40.749130,-73.981915,MADISON AV & E 36 ST
450096,MADISON AV/E 44 ST,40.754202,-73.978170,MADISON AV & E 44 ST
450102,MADISON AV/E 51 ST,40.758560,-73.974951,MADISON AV & E 51 ST
450107,MADISON AV/E 59 ST,40.763682,-73.971246,MADISON AV & E 59 ST
450203,STATE ST/BATTERY PL,40.704386,-74.014174,STATE ST & BATTERY PL
450224,E 57 ST/MADISON AV,40.762287,-73.972516,E 57 ST & MADISON AV
450376,6 AV/W 56 ST,40.763710,-73.977473,6 AV & W 56 ST
450378,TRINITY PL/THAMES ST,40.708267,-74.012551,TRINITY PL & THAMES ST
450386,CHURCH ST/CORTLANDT ST,40.710641,-74.010886,CHURCH ST & CORTLANDT ST
450392,6 AV/W 35 ST,40.750759,-73.986967,6 AV & W 35 ST
450409,3 AV/E 120 ST,40.800675,-73.937943,3 AV & E 120 ST
450413,MADISON AV/71 ST,40.771024,-73.965917,MADISON AV & 71 ST
450434,3 AV/E 86 ST,40.778917,-73.953829,3 AV & E 86 ST
450453,6 AV/W 37 ST,40.751378,-73.986524,6 AV & W 37 ST
500863,NORTHERN BL/168 ST,40.758876,-73.798338,NORTHERN BL & 168 ST
500867,NORTHERN BL/190 ST,40.757691,-73.791007,NORTHERN BL & 190 ST
500869,NORTHERN BL/194 ST,40.757801,-73.787306,NORTHERN BL & 194 ST
500871,NORTHERN BL/FRANCIS LEWIS BL,40.757657,-73.783618,NORTHERN BL & FRANCIS LEWIS BL
500874,NORTHERN BL/CLEARVIEW EXP,40.758237,-73.776755,NORTHERN BL & CLEARVIEW EXP
500877,NORTHERN BL/BELL BL,40.760169,-73.769053,NORTHERN BL & BELL BL
500879,NORTHERN BL/217 ST,40.760880,-73.764509,NORTHERN BL & 217 ST
500881,NORTHERN BL/220 PL,40.761501,-73.760600,NORTHERN BL & 220 PL
500882,NORTHERN BL/223 ST,40.761887,-73.758531,NORTHERN BL & 223 ST
500889,NORTHERN BL/MARATHON PKY,40.768295,-73.737519,NORTHERN BL & MARATHON PKY
500891,LITTLE NECK PKY/NORTHERN BL,40.770562,-73.735296,LITTLE NECK PKY & NORTHERN BL
500895,NORTHERN BL/LITTLE NECK PKY,40.770570,-73.735788,NORTHERN BL & LITTLE NECK PKY
500896,NORTHERN BL/MARATHON PKY,40.768435,-73.737737,NORTHERN BL & MARATHON PKY
500899,NORTHERN BL/DOUGLASTON PKY,40.765518,-73.744278,NORTHERN BL & DOUGLASTON PKY
500902,NORTHERN BL/223 ST,40.762111,-73.758690,NORTHERN BL & 223 ST
500904,NORTHERN BL/219 ST,40.761362,-73.763150,NORTHERN BL & 219 ST
500905,NORTHERN BL/217 ST,40.761060,-73.765006,NORTHERN BL & 217 ST
500907,NORTHERN BL/BELL BL,40.760405,-73.769313,NORTHERN BL & BELL BL
500910,NORTHERN BL/CLEARVIEW EXP,40.758513,-73.776957,NORTHERN BL & CLEARVIEW EXP
500913,NORTHERN BL/FRANCIS LEWIS BL,40.757872,-73.783225,NORTHERN BL & FRANCIS LEWIS BL
500915,NORTHERN BL/194 ST,40.758041,-73.787799,NORTHERN BL & 194 ST
500917,NORTHERN BL/189 ST,40.757929,-73.792368,NORTHERN BL & 189 ST
500920,NORTHERN BL/169 ST,40.758968,-73.797784,NORTHERN BL & 169 ST
500932,SANFORD AV/BOWNE ST,40.758229,-73.823399,SANFORD AV & BOWNE ST
500951,LITTLE NECK PKY/GRAND CENTRAL PKY,40.754302,-73.722888,LITTLE NECK PKY & GRAND CENTRAL PKY
500952,LITTLE NECK PKY/255 ST,40.756501,-73.722589,LITTLE NECK PKY & 255 ST
500954,LITTLE NECK PKY/58 AV,40.761866,-73.723019,LITTLE NECK PKY & 58 AV
500955,LITTLE NECK PKY/HORACE HARDING EXP,40.764779,-73.724236,LITTLE NECK PKY & HORACE HARDING EXP
500958,LITTLE NECK PKY/ANNANDALE LA,40.769179,-73.731574,LITTLE NECK PKY & ANNANDALE LA
500968,LITTLE NECK PKY/ANNANDALE LA,40.769002,-73.731501,LITTLE NECK PKY & ANNANDALE LA
500973,LITTLE NECK PKY/58 AV,40.761708,-73.723276,LITTLE NECK PKY & 58 AV
500975,LITTLE NECK PKY/61 AV,40.758357,-73.722608,LITTLE NECK PKY & 61 AV
500976,LITTLE NECK PKY/CULLMAN AV,40.755554,-73.723308,LITTLE NECK PKY & CULLMAN AV
500977,LITTLE NECK PKY/GRAND CENTRAL PKY,40.753203,-73.722482,LITTLE NECK PKY & GRAND CENTRAL PKY
500994,MAIN ST/NORTHERN BL,40.762739,-73.831742,MAIN ST & NORTHERN BL
500997,NORTHERN BL/PARSONS BL,40.764601,-73.823156,NORTHERN BL & PARSONS BL
500999,NORTHERN BL/149 ST,40.765225,-73.817019,NORTHERN BL & 149 ST
501005,NORTHERN BL/159 ST,40.763035,-73.806318,NORTHERN BL & 159 ST
501008,NORTHERN BL/166 ST,40.759553,-73.800163,NORTHERN BL & 166 ST
501044,BELL BL/212 ST,40.788588,-73.782168,BELL BL & 212 ST
501046,BELL BL/16 AV,40.785321,-73.778670,BELL BL & 16 AV
501047,BELL BL/18 AV,40.783534,-73.777388,BELL BL & 18 AV
501075,NORTHERN BL/165 ST,40.760495,-73.801371,NORTHERN BL & 165 ST
501077,NORTHERN BL/161 ST,40.762805,-73.804817,NORTHERN BL & 161 ST
501083,NORTHERN BL/149 ST,40.765492,-73.817578,NORTHERN BL & 149 ST
501085,NORTHERN BL/PARSONS BL,40.764779,-73.823721,NORTHERN BL & PARSONS BL
501097,UNION ST/26 AV,40.774687,-73.826132,UNION ST & 26 AV
501098,UNION ST/PARSONS BL,40.776636,-73.824526,UNION ST & PARSONS BL
501099,WILLETS PT BL/144 PL,40.776733,-73.823161,WILLETS PT BL & 144 PL
501100,WILLETS PT BL/146 ST,40.776811,-73.821780,WILLETS PT BL & 146 ST
501101,WILLETS PT BL/147 ST,40.776579,-73.819457,WILLETS PT BL & 147 ST
501132,WILLETS PT BL/147 ST,40.776771,-73.819847,WILLETS PT BL & 147 ST
501133,WILLETS PT BL/146 ST,40.776959,-73.821561,WILLETS PT BL & 146 ST
501134,WILLETS PT BL/PARSONS BL,40.776827,-73.824218,WILLETS PT BL & PARSONS BL
501135,UNION ST/25 RD,40.775768,-73.826008,UNION ST & 25 RD
501136,UNION ST/26 AV,40.774385,-73.826401,UNION ST & 26 AV
501172,CROSS ISLAND PKY/CLINTONVILLE ST,40.786345,-73.809620,CROSS ISLAND PKY & CLINTONVILLE ST
501184,166 ST/POWELLS COVE BL,40.793860,-73.797424,166 ST & POWELLS COVE BL
501189,POWELLS COVE BL/162 ST,40.794233,-73.799517,POWELLS COVE BL & 162 ST
501198,CROSS ISLAND PKY/CLINTONVILLE ST,40.787208,-73.810192,CROSS ISLAND PKY & CLINTONVILLE ST
501250,UTOPIA PKY/26 AV,40.774333,-73.792654,UTOPIA PKY & 26 AV
501252,UTOPIA PKY/22 AV,40.777214,-73.793211,UTOPIA PKY & 22 AV
501253,UTOPIA PKY/21 AV,40.778903,-73.793553,UTOPIA PKY & 21 AV
501254,UTOPIA PKY/19 AV,40.780663,-73.793908,UTOPIA PKY & 19 AV
501255,UTOPIA PKY/17 AV,40.782449,-73.794249,UTOPIA PKY & 17 AV
501256,UTOPIA PKY/16 AV,40.784037,-73.794538,UTOPIA PKY & 16 AV
501262,WILLETS PT BL/19 AV,40.781169,-73.801337,WILLETS PT BL & 19 AV
501264,WILLETS PT BL/17 AV,40.783117,-73.799104,WILLETS PT BL & 17 AV
501265,WILLETS PT BL/15 DR,40.784893,-73.796663,WILLETS PT BL & 15 DR
501267,CROSS ISLAND PKY/201 ST,40.786348,-73.793316,CROSS ISLAND PKY & 201 ST
501269,CROSS ISLAND PKY/BAYBRIDGE CONDO,40.788850,-73.786804,CROSS ISLAND PKY & BAYBRIDGE CONDO
501273,UTOPIA PKY/16 AV,40.783936,-73.794872,UTOPIA PKY & 16 AV
501275,UTOPIA PKY/19 AV,40.780309,-73.794142,UTOPIA PKY & 19 AV
501276,UTOPIA PKY/21 RD,40.777687,-73.793644,UTOPIA PKY & 21 RD
501279,UTOPIA PKY/25 AV,40.774157,-73.792954,UTOPIA PKY & 25 AV
501282,CROSS ISLAND PKY/BAYBRIDGE CONDO,40.788988,-73.787044,CROSS ISLAND PKY & BAYBRIDGE CONDO
501284,CROSS ISLAND PKY/UTOPIA PKY,40.786177,-73.794191,CROSS ISLAND PKY & UTOPIA PKY
501285,WILLETS PT BL/16 AV,40.784382,-73.797672,WILLETS PT BL & 16 AV
501286,WILLETS PT BL/17 AV,40.782890,-73.799611,WILLETS PT BL & 17 AV
501336,188 ST/75 AV,40.731075,-73.782136,188 ST & 75 AV
501337,188 ST/73 AV,40.733107,-73.782898,188 ST & 73 AV
501338,188 ST/69 AV,40.735622,-73.783854,188 ST & 69 AV
501339,188 ST/64 AV,40.739066,-73.785434,188 ST & 64 AV
501353,KISSENA BL/HORACE HARDING EXP,40.739538,-73.814963,KISSENA BL & HORACE HARDING EXP
501355,KISSENA BL/58 AV,40.742379,-73.814387,KISSENA BL & 58 AV
501356,KISSENA BL/ROSE AV,40.746354,-73.814245,KISSENA BL & ROSE AV
501357,KISSENA BL/POPLAR AV,40.747417,-73.815415,KISSENA BL & POPLAR AV
501358,KISSENA BL/NEGUNDO AV,40.748498,-73.816627,KISSENA BL & NEGUNDO AV
501360,KISSENA BL/HOLLY AV,40.750855,-73.819213,KISSENA BL & HOLLY AV
501361,KISSENA BL/45 AV,40.752493,-73.820949,KISSENA BL & 45 AV
501362,KISSENA BL/CHERRY AV,40.754087,-73.822881,KISSENA BL & CHERRY AV
501363,KISSENA BL/ASH AV,40.755069,-73.824052,KISSENA BL & ASH AV
501364,KISSENA BL/MAPLE AV,40.756376,-73.825624,KISSENA BL & MAPLE AV
501365,KISSENA BL/SANFORD AV,40.757362,-73.827269,KISSENA BL & SANFORD AV
501367,MAIN ST/ROOSEVELT AV,40.759400,-73.830175,MAIN ST & ROOSEVELT AV
501369,KISSENA BL/MAIN ST,40.758291,-73.829272,KISSENA BL & MAIN ST
501370,KISSENA BL/SANFORD AV,40.756989,-73.826920,KISSENA BL & SANFORD AV
501371,KISSENA BL/FRANKLIN AV,40.755326,-73.824643,KISSENA BL & FRANKLIN AV
501372,KISSENA BL/BEECH AV,40.754406,-73.823546,KISSENA BL & BEECH AV
501373,KISSENA BL/ELDER AV,40.753006,-73.821834,KISSENA BL & ELDER AV
501374,KISSENA BL/45 AV,40.752081,-73.820786,KISSENA BL & 45 AV
501377,KISSENA BL/MULBERRY AV,40.748611,-73.817037,KISSENA BL & MULBERRY AV
501378,KISSENA BL/OAK AV,40.747598,-73.815899,KISSENA BL & OAK AV
501379,KISSENA BL/ROSE AV,40.746173,-73.814320,KISSENA BL & ROSE AV
501380,KISSENA BL/BOOTH MEMORIAL AV,40.742896,-73.814423,KISSENA BL & BOOTH MEMORIAL AV
501382,KISSENA BL/60 AV,40.739803,-73.815232,KISSENA BL & 60 AV
501398,188 ST/64 AV,40.738770,-73.785974,188 ST & 64 AV
501399,188 ST/186 LA # 1,40.736229,-73.784674,188 ST & 186 LA # 1
501401,188 ST/73 AV,40.732969,-73.783040,188 ST & 73 AV
501402,188 ST/75 AV,40.731490,-73.782141,188 ST & 75 AV
501456,HORACE HARDING EXP/224 ST,40.749812,-73.753509,HORACE HARDING EXP & 224 ST
501457,HORACE HARDING EXP/CLOVERDALE BL,40.750289,-73.750938,HORACE HARDING EXP & CLOVERDALE BL
501458,HORACE HARDING EXP/230 ST,40.750919,-73.748138,HORACE HARDING EXP & 230 ST
501460,DOUGLASTON PKY/65 AV,40.753010,-73.741488,DOUGLASTON PKY & 65 AV
501462,HORACE HARDING EXP/DOUGLASTON PKY,40.756806,-73.738902,HORACE HARDING EXP & DOUGLASTON PKY
501463,HORACE HARDING EXP/244 ST,40.757894,-73.737111,HORACE HARDING EXP & 244 ST
501465,HORACE HARDING EXP/246 PL,40.759462,-73.734231,HORACE HARDING EXP & 246 PL
501466,HORACE HARDING EXP/MARATHON PKY,40.760358,-73.731442,HORACE HARDING EXP & MARATHON PKY
501467,HORACE HARDING EXP/251 ST,40.761748,-73.729272,HORACE HARDING EXP & 251 ST
501470,NASSAU BL/LITTLE NECK PKY,40.765388,-73.724812,NASSAU BL & LITTLE NECK PKY
501475,HORACE HARDING EXP/MARATHON PKY,40.760893,-73.732391,HORACE HARDING EXP & MARATHON PKY
501483,HORACE HARDING EXP/CLOVERDALE BL,40.750951,-73.751360,HORACE HARDING EXP & CLOVERDALE BL
501623,SPRINGFIELD BL/HORACE HARDING EXP,40.749045,-73.756560,SPRINGFIELD BL & HORACE HARDING EXP
501626,SPRINGFIELD BL/67 AV,40.745445,-73.754961,SPRINGFIELD BL & 67 AV
501627,SPRINGFIELD BL/73 AV,40.742489,-73.753603,SPRINGFIELD BL & 73 AV
501661,SPRINGFIELD BL/69 AV,40.743505,-73.753856,SPRINGFIELD BL & 69 AV
501662,SPRINGFIELD BL/67 AV,40.745271,-73.754659,SPRINGFIELD BL & 67 AV
501663,SPRINGFIELD BL/64 AV,40.747541,-73.755783,SPRINGFIELD BL & 64 AV
501665,SPRINGFIELD BL/HORACE HARDING EXP,40.748911,-73.756702,SPRINGFIELD BL & HORACE HARDING EXP
501741,CORPORAL KENNEDY ST/23 AV,40.778955,-73.782920,CORPORAL KENNEDY ST & 23 AV
501742,23 AV/CORPORAL KENNEDY ST,40.778981,-73.782677,23 AV & CORPORAL KENNEDY ST
501743,211 ST/18 AV,40.781975,-73.781756,211 ST & 18 AV
502254,MAIN ST/NORTHERN BL,40.762644,-73.831887,MAIN ST & NORTHERN BL
502304,UNION TPK/150 ST,40.719004,-73.811907,UNION TPK & 150 ST
502307,UNION TPK/164 ST,40.721300,-73.804668,UNION TPK & 164 ST
502309,UNION TPK/168 ST,40.722923,-73.799964,UNION TPK & 168 ST
502319,UNION TPK/193 ST,40.730158,-73.777299,UNION TPK & 193 ST
502325,UNION TPK/211 ST,40.733456,-73.759591,UNION TPK & 211 ST
502345,260 ST/UNION TPK,40.747321,-73.711919,260 ST & UNION TPK
502347,260 ST/74 AV,40.750093,-73.715191,260 ST & 74 AV
502348,260 ST/73 AV,40.750976,-73.717575,260 ST & 73 AV
502352,UNION TPK/265 ST,40.749223,-73.707570,UNION TPK & 265 ST
502361,260 ST/LITTLE NECK PKY,40.752019,-73.720753,260 ST & LITTLE NECK PKY
502363,260 ST/73 AV,40.750725,-73.717684,260 ST & 73 AV
502364,260 ST/74 AV,40.749080,-73.716147,260 ST & 74 AV
502369,UNION TPK/265 ST,40.749189,-73.708183,UNION TPK & 265 ST
502374,UNION TPK/LITTLE NECK PKY,40.744253,-73.717537,UNION TPK & LITTLE NECK PKY
502381,UNION TPK/235 ST,40.738053,-73.736759,UNION TPK & 235 ST
502391,UNION TPK/211 ST,40.733626,-73.760150,UNION TPK & 211 ST
502397,UNION TPK/193 ST,40.730282,-73.777831,UNION TPK & 193 ST
502399,UNION TPK/188 ST,40.729294,-73.781427,UNION TPK & 188 ST
502406,UNION TPK/168 ST,40.723026,-73.800443,UNION TPK & 168 ST
502408,UNION TPK/164 ST,40.721689,-73.804350,UNION TPK & 164 ST
502514,KISSENA BL/64 AV,40.737749,-73.814975,KISSENA BL & 64 AV
502624,73 AV/192 ST,40.734025,-73.780144,73 AV & 192 ST
502627,73 AV/197 ST,40.735620,-73.774907,73 AV & 197 ST
502631,73 AV/210 ST,40.739202,-73.763365,73 AV & 210 ST
502632,73 AV/213 ST,40.740037,-73.760551,73 AV & 213 ST
502633,73 AV/BELL BL,40.740883,-73.757993,73 AV & BELL BL
502634,73 AV/220 ST,40.741759,-73.755211,73 AV & 220 ST
502648,73 AV/218 ST,40.741423,-73.756702,73 AV & 218 ST
502649,73 AV/BELL BL,40.740848,-73.758586,73 AV & BELL BL
502650,73 AV/213 ST,40.739987,-73.761198,73 AV & 213 ST
502651,73 AV/210 ST,40.739223,-73.763844,73 AV & 210 ST
502654,73 AV/198 ST,40.735870,-73.774603,73 AV & 198 ST
502657,73 AV/193 ST,40.734321,-73.779759,73 AV & 193 ST
502724,14 AV/147 ST,40.787730,-73.818963,14 AV & 147 ST
502728,14 AV/147 ST,40.787673,-73.818516,14 AV & 147 ST
502871,HORACE HARDING EXP/98 ST,40.734766,-73.860632,HORACE HARDING EXP & 98 ST
502984,HORACE HARDING EXP/WESTSIDE AV,40.737339,-73.854072,HORACE HARDING EXP & WESTSIDE AV
502985,HORACE HARDING EXP/OTIS AV,40.736705,-73.856619,HORACE HARDING EXP & OTIS AV
503018,BROADWAY/QUEENS BL,40.737121,-73.877551,BROADWAY & QUEENS BL
503037,UNION TPK/153 ST,40.719587,-73.810806,UNION TPK & 153 ST
503148,211 ST/18 AV,40.782031,-73.781550,211 ST & 18 AV
503149,211 ST/23 AV,40.780036,-73.780576,211 ST & 23 AV
503221,CROSS ISLAND PKWY/212 ST,40.788842,-73.782481,CROSS ISLAND PKWY & 212 ST
503478,BROADWAY/JUSTICE AV,40.737801,-73.877105,BROADWAY & JUSTICE AV
503721,CORPORAL KENNEDY ST/26 AV,40.776750,-73.782914,CORPORAL KENNEDY ST & 26 AV
503725,METROPOLITAN AV/TOYS R US,40.712216,-73.890736,METROPOLITAN AV & TOYS R US
503845,ROOSEVELT AV/MAIN ST,40.759193,-73.830998,ROOSEVELT AV & MAIN ST
503917,59 AV/92 ST,40.734074,-73.869315,59 AV & 92 ST
504081,KISSENA BL/HOLLY AV,40.750566,-73.819141,KISSENA BL & HOLLY AV
504259,METROPOLITAN AV/FRESH POND RD,40.712630,-73.900176,METROPOLITAN AV & FRESH POND RD
504260,METROPOLITAN AV/65 ST,40.712452,-73.895772,METROPOLITAN AV & 65 ST
504261,METROPOLITAN AV/METRO AV EL STATION,40.712215,-73.888970,METROPOLITAN AV & METRO AV EL STATION
504307,METROPOLITAN AV/71 AV,40.710621,-73.851210,METROPOLITAN AV & 71 AV
504309,METROPOLITAN AV/69 AV,40.711378,-73.855841,METROPOLITAN AV & 69 AV
504320,METROPOLITAN AV/METRO AV TRAIN STAT,40.712425,-73.889259,METROPOLITAN AV & METRO AV TRAIN STAT
504322,METROPOLITAN AV/MT OLIVET CRES,40.712575,-73.894916,METROPOLITAN AV & MT OLIVET CRES
504323,METROPOLITAN AV/65 ST,40.712627,-73.896432,METROPOLITAN AV & 65 ST
504404,QUEENS BL /59 AV,40.733784,-73.870242,QUEENS BL  & 59 AV
504439,METROPOLITAN AV/62 ST,40.712760,-73.899513,METROPOLITAN AV & 62 ST
504448,METROPOLITAN AV/ADMIRAL AV,40.712540,-73.897386,METROPOLITAN AV & ADMIRAL AV
504483,KISSENA BL/QUEENS COLLEGE,40.735614,-73.814866,KISSENA BL & QUEENS COLLEGE
504527,UTOPIA PKY/169 ST,40.781654,-73.794398,UTOPIA PKY & 169 ST
504553,LAKEVILLE RD/UNION TPK,40.752747,-73.701761,LAKEVILLE RD & UNION TPK
504995,HORACE HARDING EXP/231 ST,40.751137,-73.747226,HORACE HARDING EXP & 231 ST
505019,COLLEGE PT BL/20 AV,40.781829,-73.845853,COLLEGE PT BL & 20 AV
505020,COLLEGE PT BL/18 AV,40.783350,-73.845757,COLLEGE PT BL & 18 AV
505022,COLLEGE PT BL/15 AV,40.784029,-73.845901,COLLEGE PT BL & 15 AV
505066,28 ST/QUEENS PLZ S,40.749700,-73.939244,28 ST & QUEENS PLZ S
505217,25 AV/149 ST,40.776280,-73.817362,25 AV & 149 ST
505227,39 AV/MAIN ST,40.760255,-73.830801,39 AV & MAIN ST
550032,ARCHER AV/BAY H,40.702207,-73.800706,ARCHER AV & BAY H
550070,CROSS BAY BL /LIBERTY AV,40.680222,-73.844382,CROSS BAY BL  & LIBERTY AV
550416,CROSS BAY BL/163 AV,40.652666,-73.838067,CROSS BAY BL & 163 AV
550417,CROSS BAY BL/163 AV,40.652627,-73.838457,CROSS BAY BL & 163 AV
550435,WOODHAVEN BL /ATLANTIC AV,40.688472,-73.848724,WOODHAVEN BL  & ATLANTIC AV
550436,WOODHAVEN BL /ATLANTIC AV,40.688266,-73.849243,WOODHAVEN BL  & ATLANTIC AV
550441,WOODHAVEN BL /JAMAICA AV,40.693647,-73.851732,WOODHAVEN BL  & JAMAICA AV
550442,WOODHAVEN BL /JAMAICA AV,40.693386,-73.852368,WOODHAVEN BL  & JAMAICA AV
550451,WOODHAVEN BL /MYRTLE AV,40.702438,-73.855076,WOODHAVEN BL  & MYRTLE AV
550452,WOODHAVEN BL /MYRTLE AV,40.702470,-73.855451,WOODHAVEN BL  & MYRTLE AV
550454,WOODHAVEN BL /METROPOLITAN AV,40.712080,-73.859508,WOODHAVEN BL  & METROPOLITAN AV
550462,WOODHAVEN BL /63 DR,40.722715,-73.867426,WOODHAVEN BL  & 63 DR
550467,WOODHAVEN BL /WETHEROLE ST,40.730977,-73.871405,WOODHAVEN BL  & WETHEROLE ST
550470,WOODHAVEN BL/HOFFMAN DR,40.733032,-73.870870,WOODHAVEN BL & HOFFMAN DR
550473,WOODHAVEN BL /PENELOPE AV,40.722487,-73.867736,WOODHAVEN BL  & PENELOPE AV
550670,21 ST/41 AV,40.754144,-73.942167,21 ST & 41 AV
550671,21 ST/41 AV,40.754206,-73.942433,21 ST & 41 AV
550680,21 ST/35 AV,40.761291,-73.935386,21 ST & 35 AV
550681,21 ST/35 AV,40.761241,-73.935665,21 ST & 35 AV
550690,ROCKAWAY BEACH BL/BEACH 108 ST,40.581913,-73.829356,ROCKAWAY BEACH BL & BEACH 108 ST
550691,ROCKAWAY BEACH BL/BEACH 108 ST,40.582159,-73.829540,ROCKAWAY BEACH BL & BEACH 108 ST
550694,ROCKAWAY BEACH BL/BEACH 105 ST,40.582995,-73.825732,ROCKAWAY BEACH BL & BEACH 105 ST
550695,ROCKAWAY BEACH BL/BEACH 105 ST,40.583120,-73.826332,ROCKAWAY BEACH BL & BEACH 105 ST
550696,ROCKAWAY BEACH BL/BEACH 102 ST,40.583631,-73.823241,ROCKAWAY BEACH BL & BEACH 102 ST
550699,ROCKAWAY BEACH BL/BEACH 100 ST,40.583749,-73.821212,ROCKAWAY BEACH BL & BEACH 100 ST
550701,ROCKAWAY BEACH BL/BEACH 97 ST,40.584848,-73.819223,ROCKAWAY BEACH BL & BEACH 97 ST
550702,ROCKAWAY BEACH BL/BEACH 96 ST,40.585321,-73.817844,ROCKAWAY BEACH BL & BEACH 96 ST
550703,ROCKAWAY BEACH BL/BEACH 96 ST,40.585492,-73.817916,ROCKAWAY BEACH BL & BEACH 96 ST
550711,CROSS BAY BL/E 9 RD,40.606607,-73.819307,CROSS BAY BL & E 9 RD
550713,CROSS BAY BL/NOEL RD,40.607948,-73.819460,CROSS BAY BL & NOEL RD
550715,CROSS BAY BL/W 5 RD,40.611555,-73.819486,CROSS BAY BL & W 5 RD
550717,CROSS BAY BL/WILDLIFE REFUGE,40.617459,-73.823557,CROSS BAY BL & WILDLIFE REFUGE
550718,CROSS BAY BL/WILDLIFE REFUGE,40.617410,-73.824000,CROSS BAY BL & WILDLIFE REFUGE
550731,CROSS BAY BL/W 15 RD,40.602218,-73.820367,CROSS BAY BL & W 15 RD
550739,QUEENS PLZ S/22 ST,40.751647,-73.943303,QUEENS PLZ S & 22 ST
550909,108 ST / 62 DR,40.735933,-73.851053,108 ST  &  62 DR
550960,YELLOWSTONE BL/AUSTIN ST,40.722664,-73.851823,YELLOWSTONE BL & AUSTIN ST
550970,UNION TPK SERVICE RD/CRESCENT APARTMENTS,40.706546,-73.855179,UNION TPK SERVICE RD & CRESCENT APARTMENTS
550972,PARSONS BL/89 AV,40.705744,-73.801503,PARSONS BL & 89 AV
550973,PARSONS BL/89 AV,40.705580,-73.801656,PARSONS BL & 89 AV
550977,PARSONS BL/HILLSIDE AV,40.707513,-73.802757,PARSONS BL & HILLSIDE AV
550978,PARSONS BL/HILLSIDE AV,40.707861,-73.802937,PARSONS BL & HILLSIDE AV
550980,PARSONS BL/87 AV,40.709009,-73.803954,PARSONS BL & 87 AV
550981,PARSONS BL/159 ST,40.710204,-73.805414,PARSONS BL & 159 ST
550982,PARSONS BL/85 AV,40.712248,-73.806392,PARSONS BL & 85 AV
550983,PARSONS BL/84 RD,40.713828,-73.806920,PARSONS BL & 84 RD
550984,PARSONS BL/GRAND CENTRAL PKY,40.715664,-73.807670,PARSONS BL & GRAND CENTRAL PKY
550985,PARSONS BL/GRAND CENTRAL PKY,40.716113,-73.807981,PARSONS BL & GRAND CENTRAL PKY
550986,PARSONS BL/82 DR,40.716994,-73.808035,PARSONS BL & 82 DR
550987,PARSONS BL/GOETHALS AV,40.718655,-73.808564,PARSONS BL & GOETHALS AV
550988,PARSONS BL/UNION TPK,40.720209,-73.809019,PARSONS BL & UNION TPK
550989,PARSONS BL/UNION TPK,40.719666,-73.809079,PARSONS BL & UNION TPK
550991,PARSONS BL/78 AV,40.722539,-73.809816,PARSONS BL & 78 AV
550992,PARSONS BL/77 AV,40.723925,-73.810353,PARSONS BL & 77 AV
550993,PARSONS BL/76 AV,40.725323,-73.810579,PARSONS BL & 76 AV
550994,KISSENA BL/75 AV,40.726666,-73.811264,KISSENA BL & 75 AV
550996,KISSENA BL/73 AV,40.726998,-73.812322,KISSENA BL & 73 AV
550997,KISSENA BL/AGUILAR AV,40.728000,-73.814008,KISSENA BL & AGUILAR AV
550998,KISSENA BL/71 AV,40.730585,-73.814855,KISSENA BL & 71 AV
550999,KISSENA BL/JEWEL AV,40.732269,-73.814711,KISSENA BL & JEWEL AV
551000,KISSENA BL/JEWEL AV,40.731858,-73.815106,KISSENA BL & JEWEL AV
551001,KISSENA BL/MELBOURNE AV,40.733954,-73.814616,KISSENA BL & MELBOURNE AV
551002,KISSENA BL/MELBOURNE AV,40.733592,-73.814978,KISSENA BL & MELBOURNE AV
551003,KISSENA BL/QUEENS COLLEGE,40.736375,-73.814510,KISSENA BL & QUEENS COLLEGE
551005,KISSENA BL/64 AV,40.738110,-73.814694,KISSENA BL & 64 AV
551012,LINDEN PL/32 AV,40.767974,-73.831873,LINDEN PL & 32 AV
551013,LINDEN PL/32 AV,40.767593,-73.831941,LINDEN PL & 32 AV
551014,LINDEN PL/31 RD,40.769560,-73.832551,LINDEN PL & 31 RD
551015,LINDEN PL/31 RD,40.769186,-73.832618,LINDEN PL & 31 RD
551018,ULMER ST/25 AV,40.776440,-73.838855,ULMER ST & 25 AV
551019,ULMER ST/25 AV,40.776409,-73.839134,ULMER ST & 25 AV
551020,23 AV/129 ST,40.778713,-73.839999,23 AV & 129 ST
551021,23 AV/129 ST,40.778575,-73.839556,23 AV & 129 ST
551022,127 ST/23 AV,40.778815,-73.841476,127 ST & 23 AV
551023,127 ST/22 AV,40.780356,-73.841398,127 ST & 22 AV
551024,127 ST/22 AV,40.780001,-73.841613,127 ST & 22 AV
551025,127 ST/20 AV,40.781635,-73.841322,127 ST & 20 AV
551026,127 ST/20 AV,40.781548,-73.841519,127 ST & 20 AV
551027,127 ST/18 AV,40.783426,-73.841219,127 ST & 18 AV
551028,127 ST/18 AV,40.783065,-73.841434,127 ST & 18 AV
551029,127 ST/14 AV,40.785467,-73.841050,127 ST & 14 AV
551030,127 ST/11 AV,40.788088,-73.840920,127 ST & 11 AV
551031,127 ST/11 AV,40.787751,-73.841127,127 ST & 11 AV
551032,127 ST/9 AV,40.789486,-73.840843,127 ST & 9 AV
551033,127 ST/9 AV,40.789143,-73.841033,127 ST & 9 AV
551034,7 AV/127 ST,40.790797,-73.841070,7 AV & 127 ST
551035,7 AV/125 ST,40.790842,-73.842613,7 AV & 125 ST
551036,7 AV/125 ST,40.790699,-73.842466,7 AV & 125 ST
551037,COLLEGE PT BL/7 AV,40.791002,-73.845388,COLLEGE PT BL & 7 AV
551038,COLLEGE PT BL/LAX AV,40.792544,-73.845295,COLLEGE PT BL & LAX AV
551039,POPPENHUSEN AV/COLLEGE PL,40.792798,-73.848776,POPPENHUSEN AV & COLLEGE PL
551040,119 ST/POPPENHUSEN AV,40.791708,-73.850708,119 ST & POPPENHUSEN AV
551042,119 ST/9 AV,40.789466,-73.849046,119 ST & 9 AV
551043,9 AV/COLLEGE PL,40.789419,-73.846862,9 AV & COLLEGE PL
551044,COLLEGE PT BL/9 AV,40.789617,-73.845466,COLLEGE PT BL & 9 AV
551045,7 AV/COLLEGE PT BL,40.790784,-73.845291,7 AV & COLLEGE PT BL
551046,127 ST/7 AV,40.790560,-73.840964,127 ST & 7 AV
551047,127 ST/15 AV,40.784943,-73.841314,127 ST & 15 AV
551048,23 AV/127 ST,40.778572,-73.841330,23 AV & 127 ST
551050,MAIN ST/40 RD,40.759003,-73.830017,MAIN ST & 40 RD
551051,MAIN ST/ROOSEVELT AV,40.759216,-73.829827,MAIN ST & ROOSEVELT AV
551053,KISSENA BL/70 RD,40.730266,-73.815168,KISSENA BL & 70 RD
551054,KISSENA BL/72 RD,40.727950,-73.814305,KISSENA BL & 72 RD
551055,PARSONS BL/75 RD,40.725610,-73.810801,PARSONS BL & 75 RD
551056,PARSONS BL/76 RD,40.724268,-73.810673,PARSONS BL & 76 RD
551057,PARSONS BL/77 RD,40.722869,-73.810160,PARSONS BL & 77 RD
551058,PARSONS BL/78 RD,40.721489,-73.809631,PARSONS BL & 78 RD
551059,PARSONS BL/HOOVER AV,40.714396,-73.807560,PARSONS BL & HOOVER AV
551060,PARSONS BL/84 DR,40.712753,-73.806720,PARSONS BL & 84 DR
551061,PARSONS BL/85 DR,40.709924,-73.805473,PARSONS BL & 85 DR
551138,32 AV/LINDEN PL,40.767778,-73.831658,32 AV & LINDEN PL
551139,138 ST/32 AV,40.768474,-73.829731,138 ST & 32 AV
551140,138 ST/31 RD,40.770222,-73.830433,138 ST & 31 RD
551141,29 RD/137 ST,40.771743,-73.831404,29 RD & 137 ST
551142,28 RD/139 ST,40.772191,-73.829299,28 RD & 139 ST
551143,28 AV/141 ST,40.773022,-73.827623,28 AV & 141 ST
551144,141 ST/28 AV,40.772918,-73.827973,141 ST & 28 AV
551145,WILLETS PT BL/149 ST,40.776460,-73.817366,WILLETS PT BL & 149 ST
551146,WILLETS PT BL/149 ST,40.776539,-73.817532,WILLETS PT BL & 149 ST
551148,139 ST/28 RD,40.772080,-73.829665,139 ST & 28 RD
551149,32 AV/138 ST,40.768301,-73.829975,32 AV & 138 ST
551247,62 DR/108 ST,40.735815,-73.850783,62 DR & 108 ST
551248,62 DR/YELLOWSTONE BL,40.735007,-73.853480,62 DR & YELLOWSTONE BL
551249,62 DR/102 ST,40.734342,-73.855697,62 DR & 102 ST
551250,62 DR/99 ST,40.733697,-73.857896,62 DR & 99 ST
551251,62 DR/98 ST,40.733153,-73.859733,62 DR & 98 ST
551252,62 DR/97 ST,40.732505,-73.861895,62 DR & 97 ST
551253,63 DR/QUEENS BL,40.729896,-73.862561,63 DR & QUEENS BL
551255,63 DR/QUEENS BL,40.729832,-73.862428,63 DR & QUEENS BL
551257,63 DR/BOOTH ST,40.728615,-73.863389,63 DR & BOOTH ST
551259,63 DR/AUSTIN ST,40.727478,-73.863947,63 DR & AUSTIN ST
551260,63 DR/HARING ST,40.725491,-73.865428,63 DR & HARING ST
551261,63 DR/CARLTON ST,40.724196,-73.866248,63 DR & CARLTON ST
551262,63 DR/CARLTON ST,40.725035,-73.865551,63 DR & CARLTON ST
551263,63 DR/WOODHAVEN BL,40.722833,-73.867479,63 DR & WOODHAVEN BL
551264,PENELOPE AV/84 PL,40.722014,-73.869236,PENELOPE AV & 84 PL
551265,PENELOPE AV/83 PL,40.721273,-73.870847,PENELOPE AV & 83 PL
551266,PENELOPE AV/82 PL,40.720656,-73.872193,PENELOPE AV & 82 PL
551267,PENELOPE AV/DRY HARBOR RD,40.720188,-73.873254,PENELOPE AV & DRY HARBOR RD
551268,PENELOPE AV/DRY HARBOR RD,40.720065,-73.873183,PENELOPE AV & DRY HARBOR RD
551269,PENELOPE AV/80 ST,40.719544,-73.874584,PENELOPE AV & 80 ST
551270,PENELOPE AV/78 ST,40.718764,-73.876255,PENELOPE AV & 78 ST
551271,FURMANVILLE AV/77 PL,40.717377,-73.876626,FURMANVILLE AV & 77 PL
551272,FURMANVILLE AV/75 PL,40.717076,-73.879014,FURMANVILLE AV & 75 PL
551273,JUNIPER VALLEY RD/74 ST,40.715354,-73.880072,JUNIPER VALLEY RD & 74 ST
551274,JUNIPER VALLEY RD/PLEASANTVIEW ST,40.714920,-73.882239,JUNIPER VALLEY RD & PLEASANTVIEW ST
551275,JUNIPER VALLEY RD/71 ST,40.714805,-73.883986,JUNIPER VALLEY RD & 71 ST
551277,69 ST/METROPOLITAN AV,40.712373,-73.886540,69 ST & METROPOLITAN AV
551278,69 ST/METROPOLITAN AV,40.712392,-73.886312,69 ST & METROPOLITAN AV
551282,ELIOT AV/FRESH POND RD,40.714598,-73.900947,ELIOT AV & FRESH POND RD
551283,ELIOT AV/64 ST,40.715893,-73.898412,ELIOT AV & 64 ST
551284,ELIOT AV/67 ST,40.718267,-73.893519,ELIOT AV & 67 ST
551285,ELIOT AV/67 ST,40.718371,-73.893644,ELIOT AV & 67 ST
551286,ELIOT AV/69 ST,40.719482,-73.890918,ELIOT AV & 69 ST
551287,ELIOT AV/69 ST,40.719467,-73.891431,ELIOT AV & 69 ST
551288,ELIOT AV/69 LA,40.720452,-73.888926,ELIOT AV & 69 LA
551289,ELIOT AV/69 LA,40.720671,-73.888779,ELIOT AV & 69 LA
551290,ELIOT AV/71 ST,40.721193,-73.887332,ELIOT AV & 71 ST
551291,ELIOT AV/71 ST,40.721421,-73.887174,ELIOT AV & 71 ST
551292,ELIOT AV/74 ST,40.721884,-73.885765,ELIOT AV & 74 ST
551293,ELIOT AV/74 ST,40.722203,-73.885502,ELIOT AV & 74 ST
551294,ELIOT AV/76 ST,40.723033,-73.883312,ELIOT AV & 76 ST
551295,ELIOT AV/76 ST,40.722914,-73.883956,ELIOT AV & 76 ST
551296,ELIOT AV/77 PL,40.723760,-73.881713,ELIOT AV & 77 PL
551297,ELIOT AV/78 ST,40.724281,-73.880655,ELIOT AV & 78 ST
551298,ELIOT AV/78 ST,40.724394,-73.880763,ELIOT AV & 78 ST
551299,ELIOT AV/80 ST,40.724864,-73.879294,ELIOT AV & 80 ST
551300,ELIOT AV/80 ST,40.725189,-73.879082,ELIOT AV & 80 ST
551301,ELIOT AV/82 ST,40.725662,-73.877612,ELIOT AV & 82 ST
551302,ELIOT AV/82 ST,40.725913,-73.877485,ELIOT AV & 82 ST
551303,ELIOT AV/83RD PL,40.726556,-73.875753,ELIOT AV & 83RD PL
551304,ELIOT AV/85 ST,40.728012,-73.872979,ELIOT AV & 85 ST
551305,ELIOT AV/85 ST,40.728117,-73.873143,ELIOT AV & 85 ST
551306,ELIOT AV/WOODHAVEN BL,40.728997,-73.871661,ELIOT AV & WOODHAVEN BL
551310,57 AV/JUNCTION BL,40.736675,-73.865614,57 AV & JUNCTION BL
551311,57 AV/JUNCTION BL,40.736668,-73.866052,57 AV & JUNCTION BL
551312,98 ST/57 AV,40.737833,-73.862269,98 ST & 57 AV
551313,CHRISTIE AV/98 ST,40.740750,-73.863292,CHRISTIE AV & 98 ST
551314,99 ST/CHRISTIE AV,40.741428,-73.861856,99 ST & CHRISTIE AV
551315,99 ST/55 AV,40.739449,-73.860712,99 ST & 55 AV
551316,99 ST/57 AV,40.738241,-73.860098,99 ST & 57 AV
551317,60 AV/99 ST,40.736422,-73.858819,60 AV & 99 ST
551319,99 ST/60 AV,40.736544,-73.859004,99 ST & 60 AV
551321,99 ST/58 AV,40.737862,-73.859702,99 ST & 58 AV
551322,CHRISTIE AV/99 ST,40.741570,-73.862066,CHRISTIE AV & 99 ST
551323,57 AV/98 ST,40.737704,-73.862479,57 AV & 98 ST
551325,57 AV/97 ST,40.737193,-73.864219,57 AV & 97 ST
551328,ELIOT AV/83 PL,40.726893,-73.875415,ELIOT AV & 83 PL
551329,ELIOT AV/77 ST,40.723651,-73.882351,ELIOT AV & 77 ST
551330,ELIOT AV/MT OLIVET CRES,40.715660,-73.899227,ELIOT AV & MT OLIVET CRES
551334,METROPOLITAN AV/RENTAR PLAZA,40.712276,-73.892843,METROPOLITAN AV & RENTAR PLAZA
551335,69 ST/66 RD,40.714210,-73.886916,69 ST & 66 RD
551336,JUNIPER VALLEY RD/70 ST,40.714657,-73.884882,JUNIPER VALLEY RD & 70 ST
551337,JUNIPER VALLEY RD/73 PL,40.714975,-73.881294,JUNIPER VALLEY RD & 73 PL
551338,JUNIPER VALLEY RD/75 ST,40.715403,-73.879395,JUNIPER VALLEY RD & 75 ST
551339,75 PL/65 DR,40.716179,-73.878989,75 PL & 65 DR
551340,FURMANVILLE AV/77 ST,40.717211,-73.877071,FURMANVILLE AV & 77 ST
551341,FURMANVILLE AV/78 ST,40.717389,-73.875517,FURMANVILLE AV & 78 ST
551342,PENELOPE AV/79 ST,40.718924,-73.875641,PENELOPE AV & 79 ST
551343,PENELOPE AV/83 ST,40.720955,-73.871274,PENELOPE AV & 83 ST
551344,PENELOPE AV/84 ST,40.721557,-73.869956,PENELOPE AV & 84 ST
551346,63 DR/WOODHAVEN BL,40.722749,-73.867379,63 DR & WOODHAVEN BL
551347,63 DR/FICHETT ST,40.723717,-73.866356,63 DR & FICHETT ST
551348,63 DR/ALDERTON ST,40.726329,-73.864697,63 DR & ALDERTON ST
551349,63 RD/98 PL,40.731819,-73.859114,63 RD & 98 PL
551351,63 RD/99 ST,40.732509,-73.856825,63 RD & 99 ST
551352,63 RD/102 ST,40.732789,-73.854833,63 RD & 102 ST
551354,63 RD/YELLOWSTONE BL,40.733660,-73.852282,63 RD & YELLOWSTONE BL
551356,63 RD/108 ST,40.734238,-73.850364,63 RD & 108 ST
551609,BEACH 116 ST/ROCKAWAY BEACH BL,40.580221,-73.837250,BEACH 116 ST & ROCKAWAY BEACH BL
551611,ROCKAWAY BEACH BL/BEACH 98 ST,40.584699,-73.819283,ROCKAWAY BEACH BL & BEACH 98 ST
551613,61 ST/ROOSEVELT AV,40.745880,-73.903463,61 ST & ROOSEVELT AV
551645,QUEENS BL/63 DR,40.729817,-73.862207,QUEENS BL & 63 DR
551651,QUEENS BL/67 AV,40.726715,-73.853724,QUEENS BL & 67 AV
551652,QUEENS BL/67 AV,40.727284,-73.853688,QUEENS BL & 67 AV
551693,QUEENS BL/72 DR,40.719909,-73.839801,QUEENS BL & 72 DR
551695,QUEENS BL/70 AV,40.722680,-73.846017,QUEENS BL & 70 AV
551708,HILLSIDE AV/PARSONS BL,40.707733,-73.802449,HILLSIDE AV & PARSONS BL
551709,164 ST/HILLSIDE AV,40.709071,-73.799011,164 ST & HILLSIDE AV
551710,164 ST/HILLSIDE AV,40.708923,-73.799134,164 ST & HILLSIDE AV
551711,164 ST/HIGHLAND AV,40.710442,-73.799840,164 ST & HIGHLAND AV
551712,164 ST/HIGHLAND AV,40.710293,-73.799975,164 ST & HIGHLAND AV
551713,164 ST/85 AV,40.712699,-73.801260,164 ST & 85 AV
551714,164 ST/84 AV,40.715004,-73.802659,164 ST & 84 AV
551715,164 ST/GRAND CENTRAL PKY,40.716525,-73.803061,164 ST & GRAND CENTRAL PKY
551717,164 ST/82 RD,40.718010,-73.803435,164 ST & 82 RD
551718,164 ST/GOETHALS AV,40.719505,-73.803838,164 ST & GOETHALS AV
551719,164 ST/GOETHALS AV,40.719122,-73.804093,164 ST & GOETHALS AV
551720,164 ST/UNION TPK,40.721771,-73.804362,164 ST & UNION TPK
551721,164 ST/UNION TPK,40.721234,-73.804645,164 ST & UNION TPK
551722,164 ST/78 AV,40.723098,-73.804496,164 ST & 78 AV
551723,164 ST/77 AV,40.724556,-73.804629,164 ST & 77 AV
551724,164 ST/76 AV,40.725930,-73.804777,164 ST & 76 AV
551725,164 ST/75 AV,40.727273,-73.804918,164 ST & 75 AV
551726,164 ST/72 AV,40.728689,-73.805052,164 ST & 72 AV
551728,164 ST/71 AV,40.730327,-73.805355,164 ST & 71 AV
551729,164 ST/JEWEL AV,40.731888,-73.804884,164 ST & JEWEL AV
551730,164 ST/JEWEL AV,40.731862,-73.805282,164 ST & JEWEL AV
551732,164 ST/69 AV,40.732993,-73.805199,164 ST & 69 AV
551733,164 ST/67 AV,40.735130,-73.804690,164 ST & 67 AV
551734,164 ST/67 AV,40.734833,-73.805062,164 ST & 67 AV
551735,164 ST/65 AV,40.736940,-73.804535,164 ST & 65 AV
551736,164 ST/65 AV,40.736648,-73.804927,164 ST & 65 AV
551737,164 ST/HORACE HARDING EXP,40.738880,-73.804509,164 ST & HORACE HARDING EXP
551738,164 ST/HORACE HARDING EXP,40.737980,-73.804828,164 ST & HORACE HARDING EXP
551739,164 ST/BOOTH MEMORIAL AV,40.742121,-73.804282,164 ST & BOOTH MEMORIAL AV
551740,164 ST/METCALF AV,40.747382,-73.802813,164 ST & METCALF AV
551741,164 ST/METCALF AV,40.747108,-73.803258,164 ST & METCALF AV
551742,164 ST/LITHONIA AV,40.749259,-73.802671,164 ST & LITHONIA AV
551743,PIDGEON MEADOW RD/46 AV,40.753447,-73.804241,PIDGEON MEADOW RD & 46 AV
551744,45 AV/162 ST,40.756513,-73.804723,45 AV & 162 ST
551745,45 AV/162 ST,40.756378,-73.804642,45 AV & 162 ST
551748,45 AV/158 ST,40.756805,-73.808446,45 AV & 158 ST
551749,45 AV/158 ST,40.756643,-73.808044,45 AV & 158 ST
551750,45 AV/156 ST,40.756917,-73.810034,45 AV & 156 ST
551751,45 AV/156 ST,40.756781,-73.809933,45 AV & 156 ST
551752,45 AV/149 ST,40.756087,-73.813290,45 AV & 149 ST
551753,45 AV/149 ST,40.756075,-73.812813,45 AV & 149 ST
551754,45 AV/PARSONS BL,40.755599,-73.815863,45 AV & PARSONS BL
551757,BOWNE ST/45 AV,40.754026,-73.818479,BOWNE ST & 45 AV
551758,BOWNE ST/CHERRY AV,40.755704,-73.820364,BOWNE ST & CHERRY AV
551761,NORTHERN BL/MAIN ST,40.762757,-73.832236,NORTHERN BL & MAIN ST
551762,NORTHERN BL/COLLINS PL,40.763043,-73.835097,NORTHERN BL & COLLINS PL
551763,COLLEGE PT BL/WHITESTONE EXP W S/R,40.767115,-73.839153,COLLEGE PT BL & WHITESTONE EXP W S & R
551764,COLLEGE PT BL/31 AV,40.769499,-73.841671,COLLEGE PT BL & 31 AV
551765,COLLEGE PT BL/31 AV,40.769240,-73.841821,COLLEGE PT BL & 31 AV
551766,COLLEGE PT BL/123 ST,40.773347,-73.845659,COLLEGE PT BL & 123 ST
551767,COLLEGE PT BL/26 AV,40.774645,-73.846502,COLLEGE PT BL & 26 AV
551768,COLLEGE PT BL/26 AV,40.774573,-73.846864,COLLEGE PT BL & 26 AV
551769,COLLEGE PT BL/25 RD,40.775874,-73.846165,COLLEGE PT BL & 25 RD
551770,COLLEGE PT BL/25 RD,40.775827,-73.846479,COLLEGE PT BL & 25 RD
551771,COLLEGE PT BL/23 AV,40.778783,-73.846001,COLLEGE PT BL & 23 AV
551772,COLLEGE PT BL/23 AV,40.778497,-73.846220,COLLEGE PT BL & 23 AV
551776,COLLEGE PT BL/20 AV,40.781563,-73.846043,COLLEGE PT BL & 20 AV
551778,14 RD/COLLEGE PT BL,40.784975,-73.845966,14 RD & COLLEGE PT BL
551779,14 RD/118 ST,40.784856,-73.849685,14 RD & 118 ST
551780,14 RD/116 ST,40.784775,-73.851453,14 RD & 116 ST
551781,14 RD/114 ST,40.784710,-73.853411,14 RD & 114 ST
551782,14 RD/112 ST,40.784639,-73.855206,14 RD & 112 ST
551784,110 ST/14 AV,40.785435,-73.857005,110 ST & 14 AV
551785,110 ST/15 AV,40.783890,-73.856879,110 ST & 15 AV
551786,15 AV/112 ST,40.783809,-73.854737,15 AV & 112 ST
551787,15 AV/114 ST,40.783874,-73.852956,15 AV & 114 ST
551788,15 AV/118 ST,40.784015,-73.849646,15 AV & 118 ST
551789,15 AV/119 ST,40.784055,-73.848316,15 AV & 119 ST
551792,COLLEGE PT BL/32 AV,40.766131,-73.837946,COLLEGE PT BL & 32 AV
551793,NORTHERN BL/COLLEGE PT BL,40.762551,-73.835194,NORTHERN BL & COLLEGE PT BL
551794,BOWNE ST/SANFORD AV,40.758047,-73.823229,BOWNE ST & SANFORD AV
551795,BOWNE ST/BEECH AV,40.755886,-73.820807,BOWNE ST & BEECH AV
551796,45 AV/BOWNE ST,40.753916,-73.818180,45 AV & BOWNE ST
551797,45 AV/PARSONS BL,40.755561,-73.815658,45 AV & PARSONS BL
551798,46 AV/162 ST,40.753385,-73.804487,46 AV & 162 ST
551799,PIDGEON MEADOW RD/LABURNUM AV,40.751408,-73.803818,PIDGEON MEADOW RD & LABURNUM AV
551800,164 ST/OAK AV,40.749659,-73.803045,164 ST & OAK AV
551801,164 ST/BOOTH MEMORIAL AV,40.742277,-73.804574,164 ST & BOOTH MEMORIAL AV
551802,164 ST/59 AV,40.740267,-73.804691,164 ST & 59 AV
551803,164 ST/73 AV,40.727671,-73.805329,164 ST & 73 AV
551804,164 ST/75 RD,40.726307,-73.805203,164 ST & 75 RD
551805,164 ST/76 RD,40.724429,-73.805018,164 ST & 76 RD
551806,164 ST/77 RD,40.723506,-73.804918,164 ST & 77 RD
551807,164 ST/QUEENS GENERAL HOSPITAL,40.717503,-73.803688,164 ST & QUEENS GENERAL HOSPITAL
551808,164 ST/84 DR,40.713793,-73.802146,164 ST & 84 DR
551809,164 ST/86 AV,40.711612,-73.800789,164 ST & 86 AV
551811,JEWEL AV/108 ST,40.723647,-73.844536,JEWEL AV & 108 ST
551812,JEWEL AV/110 ST,40.724329,-73.842310,JEWEL AV & 110 ST
551813,JEWEL AV/112 ST,40.724981,-73.840084,JEWEL AV & 112 ST
551816,JEWEL AV/PARK DR E,40.727921,-73.831391,JEWEL AV & PARK DR E
551818,JEWEL AV/136 ST,40.728307,-73.829157,JEWEL AV & 136 ST
551819,JEWEL AV/136 ST,40.728303,-73.829651,JEWEL AV & 136 ST
551820,JEWEL AV/138 ST,40.728884,-73.827289,JEWEL AV & 138 ST
551821,JEWEL AV/138 ST,40.728893,-73.827823,JEWEL AV & 138 ST
551824,JEWEL AV/MAIN ST,40.730057,-73.823129,JEWEL AV & MAIN ST
551825,JEWEL AV/MAIN ST,40.730024,-73.823774,JEWEL AV & MAIN ST
551828,JEWEL AV/150 ST,40.731280,-73.819018,JEWEL AV & 150 ST
551829,JEWEL AV/150 ST,40.731391,-73.819207,JEWEL AV & 150 ST
551832,JEWEL AV/KISSENA BL,40.731934,-73.814648,JEWEL AV & KISSENA BL
551834,JEWEL AV/KISSENA BL,40.732135,-73.815248,JEWEL AV & KISSENA BL
551841,JEWEL AV/161 ST,40.732107,-73.808141,JEWEL AV & 161 ST
551843,JEWEL AV/PARSONS BL,40.732469,-73.811062,JEWEL AV & PARSONS BL
551845,JEWEL AV/PARSONS BL,40.732227,-73.810503,JEWEL AV & PARSONS BL
551847,69 RD/112 ST,40.725655,-73.840949,69 RD & 112 ST
551848,69 RD/110 ST,40.725008,-73.843170,69 RD & 110 ST
551850,QUEENS PLZ N/21 ST,40.752559,-73.943649,QUEENS PLZ N & 21 ST
551851,35 AV/CRESCENT ST,40.759801,-73.932153,35 AV & CRESCENT ST
551852,35 AV/31 ST,40.758031,-73.928397,35 AV & 31 ST
551853,35 AV/31 ST,40.758283,-73.928616,35 AV & 31 ST
551855,35 AV/35 ST,40.756768,-73.925408,35 AV & 35 ST
551856,NORTHERN BL/WOODSIDE AV,40.752893,-73.909869,NORTHERN BL & WOODSIDE AV
551857,35 AV/STEINWAY ST,40.755043,-73.922003,35 AV & STEINWAY ST
551858,35 AV/STEINWAY ST,40.755292,-73.922236,35 AV & STEINWAY ST
551859,NORTHERN BL/42 PL,40.753256,-73.920206,NORTHERN BL & 42 PL
551860,NORTHERN BL/48 ST,40.753486,-73.914242,NORTHERN BL & 48 ST
551861,NORTHERN BL/54 ST,40.753183,-73.907161,NORTHERN BL & 54 ST
551862,NORTHERN BL/56 ST,40.753434,-73.904737,NORTHERN BL & 56 ST
551863,NORTHERN BL/56 ST,40.753654,-73.904779,NORTHERN BL & 56 ST
551864,NORTHERN BL/60 ST,40.753685,-73.902279,NORTHERN BL & 60 ST
551865,NORTHERN BL/62 ST,40.753918,-73.900129,NORTHERN BL & 62 ST
551866,NORTHERN BL/62 ST,40.754113,-73.900506,NORTHERN BL & 62 ST
551867,NORTHERN BL/69 ST,40.754226,-73.897346,NORTHERN BL & 69 ST
551868,NORTHERN BL/72 ST,40.754508,-73.894472,NORTHERN BL & 72 ST
551869,NORTHERN BL/72 ST,40.754714,-73.894885,NORTHERN BL & 72 ST
551870,NORTHERN BL/74 ST,40.754697,-73.892648,NORTHERN BL & 74 ST
551871,NORTHERN BL/74 ST,40.754912,-73.893028,NORTHERN BL & 74 ST
551872,NORTHERN BL/76 ST,40.754897,-73.890773,NORTHERN BL & 76 ST
551873,NORTHERN BL/76 ST,40.755098,-73.891163,NORTHERN BL & 76 ST
551874,NORTHERN BL/78 ST,40.755092,-73.888907,NORTHERN BL & 78 ST
551875,NORTHERN BL/78 ST,40.755290,-73.889305,NORTHERN BL & 78 ST
551876,NORTHERN BL/80 ST,40.755249,-73.887365,NORTHERN BL & 80 ST
551877,NORTHERN BL/80 ST,40.755488,-73.887448,NORTHERN BL & 80 ST
551878,NORTHERN BL/82 ST,40.755475,-73.885166,NORTHERN BL & 82 ST
551879,NORTHERN BL/82 ST,40.755723,-73.885237,NORTHERN BL & 82 ST
551880,NORTHERN BL/83 ST,40.755575,-73.884233,NORTHERN BL & 83 ST
551881,NORTHERN BL/85 ST,40.755763,-73.882416,NORTHERN BL & 85 ST
551882,NORTHERN BL/87 ST,40.755964,-73.880508,NORTHERN BL & 87 ST
551884,NORTHERN BL/91 ST,40.756353,-73.876818,NORTHERN BL & 91 ST
551885,NORTHERN BL/93 ST,40.756560,-73.874935,NORTHERN BL & 93 ST
551886,NORTHERN BL/JUNCTION BL,40.756729,-73.873343,NORTHERN BL & JUNCTION BL
551887,NORTHERN BL/JUNCTION BL,40.756911,-73.873946,NORTHERN BL & JUNCTION BL
551888,NORTHERN BL/97 ST,40.756961,-73.871135,NORTHERN BL & 97 ST
551889,NORTHERN BL/99 ST,40.757149,-73.869294,NORTHERN BL & 99 ST
551890,NORTHERN BL/101 ST,40.757362,-73.867286,NORTHERN BL & 101 ST
551891,NORTHERN BL/103 ST,40.757550,-73.865436,NORTHERN BL & 103 ST
551892,NORTHERN BL/105 ST,40.757636,-73.863495,NORTHERN BL & 105 ST
551893,NORTHERN BL/108 ST,40.757740,-73.860779,NORTHERN BL & 108 ST
551894,NORTHERN BL/108 ST,40.757964,-73.861250,NORTHERN BL & 108 ST
551897,NORTHERN BL/114 ST,40.758177,-73.855810,NORTHERN BL & 114 ST
551898,NORTHERN BL/114 ST,40.758420,-73.855949,NORTHERN BL & 114 ST
551900,NORTHERN BL/126 ST,40.760682,-73.846174,NORTHERN BL & 126 ST
551901,NORTHERN BL/127 PL,40.761935,-73.842952,NORTHERN BL & 127 PL
551904,NORTHERN BL/111 ST,40.758049,-73.859097,NORTHERN BL & 111 ST
551905,NORTHERN BL/106 ST,40.757904,-73.863008,NORTHERN BL & 106 ST
551906,NORTHERN BL/104 ST,40.757838,-73.864833,NORTHERN BL & 104 ST
551907,NORTHERN BL/102 ST,40.757665,-73.866772,NORTHERN BL & 102 ST
551908,NORTHERN BL/100 ST,40.757461,-73.868687,NORTHERN BL & 100 ST
551909,NORTHERN BL/98 ST,40.757257,-73.870634,NORTHERN BL & 98 ST
551910,NORTHERN BL/96 ST,40.757072,-73.872418,NORTHERN BL & 96 ST
551911,NORTHERN BL/92 ST,40.756658,-73.876297,NORTHERN BL & 92 ST
551912,NORTHERN BL/90 ST,40.756478,-73.878137,NORTHERN BL & 90 ST
551913,NORTHERN BL/88 ST,40.756280,-73.879978,NORTHERN BL & 88 ST
551914,NORTHERN BL/86 ST,40.756076,-73.881901,NORTHERN BL & 86 ST
551915,NORTHERN BL/84 ST,40.755890,-73.883717,NORTHERN BL & 84 ST
551916,NORTHERN BL/70 ST,40.754510,-73.896742,NORTHERN BL & 70 ST
551917,NORTHERN BL/58 ST,40.753841,-73.903226,NORTHERN BL & 58 ST
551919,NORTHERN BL/NEWTOWN RD,40.753216,-73.911081,NORTHERN BL & NEWTOWN RD
551920,NORTHERN BL/49 ST,40.753661,-73.913895,NORTHERN BL & 49 ST
551921,NORTHERN BL/44 ST,40.753877,-73.918532,NORTHERN BL & 44 ST
551922,35 AV/24 ST,40.760353,-73.933002,35 AV & 24 ST
551965,69 ST/JUNIPER VALLEY RD,40.714645,-73.887263,69 ST & JUNIPER VALLEY RD
552503,WHITESTONE EXP/LINDEN PL,40.771582,-73.833747,WHITESTONE EXP & LINDEN PL
552504,WHITESTONE EXPWY/LINDEN PL,40.771091,-73.832982,WHITESTONE EXPWY & LINDEN PL
552505,WHITESTONE EXP E SVC RD/20 AV,40.781917,-73.824456,WHITESTONE EXP E SVC RD & 20 AV
552506,WHITESTONE EXP W SVC RD/20 AV,40.781506,-73.825903,WHITESTONE EXP W SVC RD & 20 AV
552507,UNION TPK/MAIN ST,40.717653,-73.816790,UNION TPK & MAIN ST
552508,UNION TPK/MAIN ST,40.717747,-73.817471,UNION TPK & MAIN ST
552510,UNION TPK/PARSONS BL,40.719789,-73.809114,UNION TPK & PARSONS BL
552511,UNION TPK/PARSONS BL,40.720102,-73.808985,UNION TPK & PARSONS BL
552515,NORTHERN BL/89 ST,40.756159,-73.878651,NORTHERN BL & 89 ST
552519,UNION TPK/UTOPIA PKY,40.725759,-73.791415,UNION TPK & UTOPIA PKY
552520,UNION TPK/UTOPIA PKY,40.725883,-73.792082,UNION TPK & UTOPIA PKY
552521,UNION TPK/CHEVY CHASE ST,40.728395,-73.783325,UNION TPK & CHEVY CHASE ST
552531,UNION TPK/BELL BL,40.734261,-73.754862,UNION TPK & BELL BL
552532,UNION TPK/BELL BL,40.734406,-73.755528,UNION TPK & BELL BL
552533,UNION TPK/226 ST,40.736070,-73.744728,UNION TPK & 226 ST
552534,UNION TPK/226 ST,40.736276,-73.744964,UNION TPK & 226 ST
552535,UNION TPK/234 ST,40.737633,-73.737414,UNION TPK & 234 ST
552536,UNION TPK/WINCHESTER BL,40.738921,-73.733465,UNION TPK & WINCHESTER BL
552537,UNION TPK/WINCHESTER BL,40.739178,-73.733572,UNION TPK & WINCHESTER BL
552538,UNION TPK/248 ST,40.742335,-73.721705,UNION TPK & 248 ST
552539,UNION TPK/248 ST,40.742428,-73.722258,UNION TPK & 248 ST
552540,UNION TPK/252 ST,40.743547,-73.718241,UNION TPK & 252 ST
552541,UNION TPK/260 ST,40.747064,-73.711657,UNION TPK & 260 ST
552542,UNION TPK/260 ST,40.747106,-73.712218,UNION TPK & 260 ST
552548,160 ST/CROSS ISLAND PKY,40.786683,-73.802335,160 ST & CROSS ISLAND PKY
552549,166 ST/9 AV,40.792861,-73.797760,166 ST & 9 AV
552553,18 AV/212 ST,40.783026,-73.779752,18 AV & 212 ST
552665,212 ST/15 AV,40.785408,-73.781506,212 ST & 15 AV
552667,26 AV/203 ST,40.774905,-73.788703,26 AV & 203 ST
552668,26 AV/204 ST,40.775122,-73.788469,26 AV & 204 ST
552669,260 ST/LITTLE NECK PKY,40.752266,-73.720968,260 ST & LITTLE NECK PKY
552671,31 RD/138 ST,40.770208,-73.830735,31 RD & 138 ST
552672,57 AV/99 ST,40.738386,-73.860313,57 AV & 99 ST
552674,63 RD/98 PL,40.732229,-73.858300,63 RD & 98 PL
552678,69 RD/108 ST,40.724338,-73.845425,69 RD & 108 ST
552679,69 RD/QUEENS BL,40.723573,-73.847980,69 RD & QUEENS BL
552709,CROSS ISLAND PKY/160 ST,40.786587,-73.802635,CROSS ISLAND PKY & 160 ST
552712,DOUGLASTON PKY/61 AV,40.755694,-73.739325,DOUGLASTON PKY & 61 AV
552713,DOUGLASTON PKY/61 AV,40.755899,-73.739398,DOUGLASTON PKY & 61 AV
552715,DOUGLASTON PKY/65 AV,40.752770,-73.741609,DOUGLASTON PKY & 65 AV
552821,JEWEL AV/QUEENS BL,40.723039,-73.846708,JEWEL AV & QUEENS BL
552824,LAKEVILLE RD/L I JEWISH HOSPITAL,40.755549,-73.704345,LAKEVILLE RD & L I JEWISH HOSPITAL
552825,LAKEVILLE RD/L I JEWISH HOSPITAL,40.755574,-73.704028,LAKEVILLE RD & L I JEWISH HOSPITAL
552827,LITTLE NECK PKY/61 AV,40.758736,-73.722344,LITTLE NECK PKY & 61 AV
552832,LINDEN PL/WHITESTONE EXP,40.771864,-73.833497,LINDEN PL & WHITESTONE EXP
552838,28 AV/ULMER ST,40.772893,-73.837008,28 AV & ULMER ST
552896,NORTH SHORE TOWERS/BLDG ENT,40.757221,-73.714879,NORTH SHORE TOWERS & BLDG ENT
552903,NORTHERN BL/DOUGLASTON PKY,40.765298,-73.743880,NORTHERN BL & DOUGLASTON PKY
552907,POWELLS COVE BL/162 ST,40.794091,-73.799397,POWELLS COVE BL & 162 ST
552921,UNION TPK/HEWLETT ST,40.752287,-73.702350,UNION TPK & HEWLETT ST
552923,WEST ALLEY RD/233 ST,40.751687,-73.745592,WEST ALLEY RD & 233 ST
552924,WHITESTONE EXP/14 AV,40.786748,-73.823421,WHITESTONE EXP & 14 AV
552925,WHITESTONE EXP/14 AV,40.786603,-73.824590,WHITESTONE EXP & 14 AV
552926,WHITESTONE EXP/25 RD,40.775934,-73.827706,WHITESTONE EXP & 25 RD
552927,WILLETS PT BL/154 ST,40.778251,-73.809050,WILLETS PT BL & 154 ST
552928,WILLETS PT BL/154 ST,40.778049,-73.809278,WILLETS PT BL & 154 ST
552929,WILLETS PT BL/19 AV,40.781690,-73.801026,WILLETS PT BL & 19 AV
552931,WILLETS PT BL/FRANCIS LEWIS BL,40.780410,-73.802414,WILLETS PT BL & FRANCIS LEWIS BL
552932,YELLOWSTONE BL/62 RD,40.735532,-73.853637,YELLOWSTONE BL & 62 RD
552933,YELLOWSTONE BL/63 DR,40.732830,-73.852240,YELLOWSTONE BL & 63 DR
552934,YELLOWSTONE BL/64 RD,40.731760,-73.851483,YELLOWSTONE BL & 64 RD
552935,YELLOWSTONE BL/65 AV,40.730829,-73.851192,YELLOWSTONE BL & 65 AV
552936,YELLOWSTONE BL/67 AV,40.728622,-73.849109,YELLOWSTONE BL & 67 AV
552937,YELLOWSTONE BL/67 AV,40.728357,-73.849337,YELLOWSTONE BL & 67 AV
552938,YELLOWSTONE BL/68 AV,40.726530,-73.848481,YELLOWSTONE BL & 68 AV
552939,YELLOWSTONE BL/68 AV,40.726267,-73.848583,YELLOWSTONE BL & 68 AV
552940,YELLOWSTONE BL/68 RD,40.715247,-73.858383,YELLOWSTONE BL & 68 RD
552941,YELLOWSTONE BL/69 AV,40.724753,-73.846839,YELLOWSTONE BL & 69 AV
552942,YELLOWSTONE BL/69 AV,40.724473,-73.846919,YELLOWSTONE BL & 69 AV
552943,YELLOWSTONE BL/ALDERTON ST,40.715188,-73.858739,YELLOWSTONE BL & ALDERTON ST
552944,YELLOWSTONE BL/BURNS ST,40.722046,-73.853708,YELLOWSTONE BL & BURNS ST
552945,YELLOWSTONE BL/CLYDE ST,40.721653,-73.854264,YELLOWSTONE BL & CLYDE ST
552946,YELLOWSTONE BL/GERARD PL,40.722540,-73.849306,YELLOWSTONE BL & GERARD PL
552947,YELLOWSTONE BL/GROTON ST,40.719009,-73.856311,YELLOWSTONE BL & GROTON ST
552948,YELLOWSTONE BL/GROTON ST,40.719135,-73.856006,YELLOWSTONE BL & GROTON ST
552949,YELLOWSTONEL/JUNO ST,40.716952,-73.857312,YELLOWSTONEL & JUNO ST
552950,YELLOWSTONE BL/KESSEL ST,40.716594,-73.857866,YELLOWSTONE BL & KESSEL ST
552951,YELLOWSTONE BL/QUEENS BL,40.722874,-73.848246,YELLOWSTONE BL & QUEENS BL
552957,139 ST/31 RD,40.770860,-73.829659,139 ST & 31 RD
552958,BROADWAY/78 ST,40.744794,-73.887127,BROADWAY & 78 ST
552964,99 ST/LEWIS AV,40.739828,-73.860728,99 ST & LEWIS AV
552965,COLLEGE PT BL/123 ST,40.772813,-73.845531,COLLEGE PT BL & 123 ST
552966,63 RD/QUEENS BL,40.730374,-73.861951,63 RD & QUEENS BL
552974,14 RD/120 ST,40.784910,-73.847897,14 RD & 120 ST
552979,COLLEGE PT BL/WHITESTONE EXP,40.766918,-73.839365,COLLEGE PT BL & WHITESTONE EXP
552981,NORTHERN BL/126 PL,40.761148,-73.844635,NORTHERN BL & 126 PL
552984,BELL BL/23 AV,40.782513,-73.776698,BELL BL & 23 AV
552991,FRESH POND RD/ELIOT AV,40.713870,-73.901086,FRESH POND RD & ELIOT AV
552992,CROSS BAY BL/157 AV,40.662339,-73.840858,CROSS BAY BL & 157 AV
552993,HOFFMAN DR /WOODHAVEN BL,40.733152,-73.871078,HOFFMAN DR  & WOODHAVEN BL
552994,57 AV/92 ST,40.735541,-73.869884,57 AV & 92 ST
552995,59 AV/94 ST,40.734762,-73.866934,59 AV & 94 ST
553013,BROADWAY/75 ST,40.746212,-73.890103,BROADWAY & 75 ST
553014,BROADWAY/75 ST,40.746049,-73.890092,BROADWAY & 75 ST
553024,NORTHERN BL/BROADWAY,40.753394,-73.907383,NORTHERN BL & BROADWAY
553027,CROSS BAY BL/E 16 RD,40.601521,-73.820088,CROSS BAY BL & E 16 RD
553029,ROCKAWAY BEACH BL/BEACH 102 ST,40.583863,-73.823565,ROCKAWAY BEACH BL & BEACH 102 ST
553033,QUEENS PLZ S/24 ST,40.750779,-73.941336,QUEENS PLZ S & 24 ST
553042,164 ST/PIDGEON MEADOW ROAD,40.750758,-73.803001,164 ST & PIDGEON MEADOW ROAD
553048,164 ST/84 AV,40.715137,-73.802912,164 ST & 84 AV
553058,PARSONS BL/VILLAGE RD,40.717299,-73.808355,PARSONS BL & VILLAGE RD
553095,CROSS BAY BL/E 5 RD,40.611468,-73.819011,CROSS BAY BL & E 5 RD
553117,SANFORD AV/KISSENA BL,40.757150,-73.826771,SANFORD AV & KISSENA BL
553119,BROADWAY/BAXTER AV,40.744272,-73.885522,BROADWAY & BAXTER AV
553126,PARSONS BL/JAMAICA AV,40.703616,-73.800218,PARSONS BL & JAMAICA AV
553127,PARSONS BL/JAMAICA AV,40.703425,-73.800343,PARSONS BL & JAMAICA AV
553130,28 AV/ULMER ST,40.772749,-73.836771,28 AV & ULMER ST
553138,CROSS BAY BL/157 AV,40.662029,-73.840401,CROSS BAY BL & 157 AV
553139,SUTPHIN BL/94 AV,40.699073,-73.807071,SUTPHIN BL & 94 AV
553141,WOODHAVEN BL /METROPOLITAN AV,40.712080,-73.859987,WOODHAVEN BL  & METROPOLITAN AV
553142,CROSS BAY BL /LIBERTY AV,40.680436,-73.844818,CROSS BAY BL  & LIBERTY AV
553148,164 ST/HORACE HARDING EXP,40.738050,-73.804494,164 ST & HORACE HARDING EXP
553154,35 AV/35 ST,40.756674,-73.925492,35 AV & 35 ST
553163,LINDEN PL/35 AV,40.764914,-73.830625,LINDEN PL & 35 AV
553164,LINDEN PL/35 AV,40.764796,-73.830799,LINDEN PL & 35 AV
553177,LINDEN PL/WHITESTONE EXP,40.771671,-73.833621,LINDEN PL & WHITESTONE EXP
553178,WOODHAVEN BL/BOOTH ST,40.731552,-73.871210,WOODHAVEN BL & BOOTH ST
553179,HORACE HARDING EXP/LITTLE NECK PKY,40.763833,-73.724077,HORACE HARDING EXP & LITTLE NECK PKY
553183,OTIS AV/CALLOWAY ST,40.737158,-73.856133,OTIS AV & CALLOWAY ST
553206,BROADWAY/NORTHERN BL,40.753525,-73.907186,BROADWAY & NORTHERN BL
553210,108 ST/63 RD,40.734473,-73.850264,108 ST & 63 RD
553213,BROADWAY/WHITNEY AV,40.741451,-73.880311,BROADWAY & WHITNEY AV
553214,BROADWAY/WHITNEY AV,40.741543,-73.880668,BROADWAY & WHITNEY AV
553224,138 ST / 31 RD,40.770054,-73.830543,138 ST  &  31 RD
553236,PARSONS BL/88 AV,40.707284,-73.802415,PARSONS BL & 88 AV
553252,NORTHERN BL/111 ST,40.757851,-73.858335,NORTHERN BL & 111 ST
553277,TROTTING COURSE LN/ALDERTON ST,40.712159,-73.858480,TROTTING COURSE LN & ALDERTON ST
982055,JAMAICA AV/153 ST,40.702776,-73.802511,JAMAICA AV & 153 ST
982060,138 ST/31 RD,40.770343,-73.830605,138 ST & 31 RD
982061,WHITESTONE EXPWY/LINDEN PL,40.771145,-73.832872,WHITESTONE EXPWY & LINDEN PL
982062,57 AV/94 ST,40.736201,-73.867759,57 AV & 94 ST
